{
	"type": "FeatureCollection",
	"features": [
		{
			"type": "Feature",
			"geometry": {
				"type": "Point",
				"coordinates": [
					4.76218700408936,
					52.3092395443074
				]
			},
			"properties": {
				"marker-size": "small",
				"marker-color": "#0077C7",
				"date": "November 07, 2012 at 02:31AM",
				"comment": "",
				"name": "Amsterdam Airport Schiphol (AMS) ",
				"map": "",
				"lat": "52.3092395443074",
				"long": "4.76218700408936",
				"rowNumber": 1,
				"hexcolor": "#0077C7"
			}
		},
		{
			"type": "Feature",
			"geometry": {
				"type": "Point",
				"coordinates": [
					4.90054607391357,
					52.3786119666714
				]
			},
			"properties": {
				"marker-size": "small",
				"marker-color": "#0077C7",
				"date": "November 07, 2012 at 03:50AM",
				"comment": "",
				"name": "Station Amsterdam Centraal ",
				"map": "#N/A",
				"lat": "52.3786119666714",
				"long": "4.90054607391357",
				"rowNumber": 2,
				"hexcolor": "#0077C7"
			}
		},
		{
			"type": "Feature",
			"geometry": {
				"type": "Point",
				"coordinates": [
					4.89786386489868,
					52.3736604030942
				]
			},
			"properties": {
				"marker-size": "small",
				"marker-color": "#0077C7",
				"date": "November 07, 2012 at 04:42AM",
				"comment": "10:30am on a Tuesday seems as good a time for this as any.",
				"name": "Red Light District / De Wallen ",
				"map": "#N/A",
				"lat": "52.3736604030942",
				"long": "4.89786386489868",
				"rowNumber": 3,
				"hexcolor": "#0077C7"
			}
		},
		{
			"type": "Feature",
			"geometry": {
				"type": "Point",
				"coordinates": [
					4.895992,
					52.373902
				]
			},
			"properties": {
				"marker-size": "small",
				"marker-color": "#0077C7",
				"date": "November 07, 2012 at 05:02AM",
				"comment": "Literally walked in because it smelled so good. Bought a beer at 11am. I regret nothing.",
				"name": "Metropolitan Deli ",
				"map": "#N/A",
				"lat": "52.373902",
				"long": "4.895992",
				"rowNumber": 4,
				"hexcolor": "#0077C7"
			}
		},
		{
			"type": "Feature",
			"geometry": {
				"type": "Point",
				"coordinates": [
					4.900325,
					52.376114
				]
			},
			"properties": {
				"marker-size": "small",
				"marker-color": "#0077C7",
				"date": "November 07, 2012 at 06:29AM",
				"comment": "",
				"name": "Skek ",
				"map": "#N/A",
				"lat": "52.376114",
				"long": "4.900325",
				"rowNumber": 5,
				"hexcolor": "#0077C7"
			}
		},
		{
			"type": "Feature",
			"geometry": {
				"type": "Point",
				"coordinates": [
					4.89665,
					52.373977
				]
			},
			"properties": {
				"marker-size": "small",
				"marker-color": "#0077C7",
				"date": "November 08, 2012 at 12:00PM",
				"comment": "Wifi = foursquare check in.",
				"name": "Belushi's ",
				"map": "#N/A",
				"lat": "52.373977",
				"long": "4.89665",
				"rowNumber": 6,
				"hexcolor": "#0077C7"
			}
		},
		{
			"type": "Feature",
			"geometry": {
				"type": "Point",
				"coordinates": [
					4.89373294094619,
					52.3695803432809
				]
			},
			"properties": {
				"marker-size": "small",
				"marker-color": "#0077C7",
				"date": "November 08, 2012 at 01:01PM",
				"comment": "Amsterdam OSM meetup!",
				"name": "Kapitein Zeppos ",
				"map": "#N/A",
				"lat": "52.3695803432809",
				"long": "4.89373294094619",
				"rowNumber": 7,
				"hexcolor": "#0077C7"
			}
		}
	]
}
